{
"type": "FeatureCollection",
"name": "AcyclicaMap",
"crs": { "type": "name", "properties": { "name": "urn:ogc:def:crs:OGC:1.3:CRS84" } },
"features": [
{ "type": "Feature", "properties": { "address": "11th Ave. N. E. & N. E. 45th St.", "city": " Seattle", "state": " WA", "zip": null, "Latitude": 47.66129, "Longitude": -122.31658 }, "geometry": { "type": "Point", "coordinates": [ -122.31658, 47.66129 ] } },
{ "type": "Feature", "properties": { "address": "12th Ave. S. & S. Jackson St.", "city": " Seattle", "state": " WA", "zip": null, "Latitude": 47.599187, "Longitude": -122.317225 }, "geometry": { "type": "Point", "coordinates": [ -122.31722, 47.59919 ] } },
{ "type": "Feature", "properties": { "address": "15 Ave. N. W. & N. W. 85 St.", "city": " Seattle", "state": " WA", "zip": null, "Latitude": 47.690607, "Longitude": -122.376807 }, "geometry": { "type": "Point", "coordinates": [ -122.37681, 47.69061 ] } },
{ "type": "Feature", "properties": { "address": "15 Ave. N. W. & N. W. Emerson St.", "city": " Seattle", "state": " WA", "zip": null, "Latitude": 47.654275, "Longitude": -122.376072 }, "geometry": { "type": "Point", "coordinates": [ -122.37607, 47.65427 ] } },
{ "type": "Feature", "properties": { "address": "15 Ave. N. W. & N. W. Emerson St.", "city": " Seattle", "state": " WA", "zip": null, "Latitude": 47.654275, "Longitude": -122.376072 }, "geometry": { "type": "Point", "coordinates": [ -122.37607, 47.65427 ] } },
{ "type": "Feature", "properties": { "address": "15th Ave. N. E. & N. E. 45th St.", "city": " Seattle", "state": " WA", "zip": null, "Latitude": 47.661262, "Longitude": -122.311983 }, "geometry": { "type": "Point", "coordinates": [ -122.31198, 47.66126 ] } },
{ "type": "Feature", "properties": { "address": "15th Ave. N. E. & N. E. Campus Eastbound Parkway", "city": " Seattle", "state": " WA", "zip": null, "Latitude": 47.656204, "Longitude": -122.31207 }, "geometry": { "type": "Point", "coordinates": [ -122.31207, 47.6562 ] } },
{ "type": "Feature", "properties": { "address": "15th Ave. N. E. & N. E. Northgate Way", "city": " Seattle", "state": " WA", "zip": null, "Latitude": 47.708527, "Longitude": -122.312432 }, "geometry": { "type": "Point", "coordinates": [ -122.31243, 47.70853 ] } },
{ "type": "Feature", "properties": { "address": "15th Ave. N. E. & N. E. Pacific St.", "city": " Seattle", "state": " WA", "zip": null, "Latitude": 47.652983, "Longitude": -122.312465 }, "geometry": { "type": "Point", "coordinates": [ -122.31247, 47.65298 ] } },
{ "type": "Feature", "properties": { "address": "15th Ave. N. W. & N. W. 61st St.", "city": " Seattle", "state": " WA", "zip": null, "Latitude": 47.673086, "Longitude": -122.376212 }, "geometry": { "type": "Point", "coordinates": [ -122.37621, 47.67309 ] } },
{ "type": "Feature", "properties": { "address": "15th Ave. W & W Blaine St.", "city": " Seattle", "state": " WA", "zip": null, "Latitude": 47.634819, "Longitude": -122.376179 }, "geometry": { "type": "Point", "coordinates": [ -122.37618, 47.63482 ] } },
{ "type": "Feature", "properties": { "address": "1st & Hanford", "city": " Seattle", "state": " WA", "zip": null, "Latitude": 47.575573, "Longitude": -122.334205 }, "geometry": { "type": "Point", "coordinates": [ -122.3342, 47.57557 ] } },
{ "type": "Feature", "properties": { "address": "1st and Roy", "city": " Seattle", "state": " WA", "zip": null, "Latitude": 47.307488, "Longitude": -122.208158 }, "geometry": { "type": "Point", "coordinates": [ -122.20816, 47.30749 ] } },
{ "type": "Feature", "properties": { "address": "1st Ave. & Broad St.", "city": " Seattle", "state": " WA", "zip": null, "Latitude": 47.616917, "Longitude": -122.352508 }, "geometry": { "type": "Point", "coordinates": [ -122.35251, 47.61692 ] } },
{ "type": "Feature", "properties": { "address": "1st Ave. & Cherry St.", "city": " Seattle", "state": " WA", "zip": null, "Latitude": 47.602554, "Longitude": -122.334283 }, "geometry": { "type": "Point", "coordinates": [ -122.33428, 47.60255 ] } },
{ "type": "Feature", "properties": { "address": "1st Ave. & Columbia St.", "city": " Seattle", "state": " WA", "zip": null, "Latitude": 47.603272, "Longitude": -122.334941 }, "geometry": { "type": "Point", "coordinates": [ -122.33494, 47.60327 ] } },
{ "type": "Feature", "properties": { "address": "1st Ave. & Madison St.", "city": " Seattle", "state": " WA", "zip": null, "Latitude": 47.604693, "Longitude": -122.33624 }, "geometry": { "type": "Point", "coordinates": [ -122.33624, 47.60469 ] } },
{ "type": "Feature", "properties": { "address": "1st Ave. & Marion St.", "city": " Seattle", "state": " WA", "zip": null, "Latitude": 47.60398, "Longitude": -122.335588 }, "geometry": { "type": "Point", "coordinates": [ -122.33559, 47.60398 ] } },
{ "type": "Feature", "properties": { "address": "1st Ave. & Seneca St.", "city": " Seattle", "state": " WA", "zip": null, "Latitude": 47.60612, "Longitude": -122.337546 }, "geometry": { "type": "Point", "coordinates": [ -122.33755, 47.60612 ] } },
{ "type": "Feature", "properties": { "address": "1st Ave. & Spring St.", "city": " Seattle", "state": " WA", "zip": null, "Latitude": 47.604693, "Longitude": -122.33624 }, "geometry": { "type": "Point", "coordinates": [ -122.33624, 47.60469 ] } },
{ "type": "Feature", "properties": { "address": "1st Ave. & Stewart St.", "city": " Seattle", "state": " WA", "zip": null, "Latitude": 47.610273, "Longitude": -122.341345 }, "geometry": { "type": "Point", "coordinates": [ -122.34135, 47.61027 ] } },
{ "type": "Feature", "properties": { "address": "1st Ave. & Union St.", "city": " Seattle", "state": " WA", "zip": null, "Latitude": 47.607825, "Longitude": -122.339107 }, "geometry": { "type": "Point", "coordinates": [ -122.33911, 47.60782 ] } },
{ "type": "Feature", "properties": { "address": "1st Ave. & Wall St.", "city": " Seattle", "state": " WA", "zip": null, "Latitude": 47.614694, "Longitude": -122.348748 }, "geometry": { "type": "Point", "coordinates": [ -122.34875, 47.61469 ] } },
{ "type": "Feature", "properties": { "address": "1st Ave. & Yesler Way", "city": " Seattle", "state": " WA", "zip": null, "Latitude": 47.601721, "Longitude": -122.334181 }, "geometry": { "type": "Point", "coordinates": [ -122.33418, 47.60172 ] } },
{ "type": "Feature", "properties": { "address": "1st Ave. Garage (East Side)", "city": " Seattle", "state": " WA", "zip": null, "Latitude": 47.611338, "Longitude": -122.343151 }, "geometry": { "type": "Point", "coordinates": [ -122.34315, 47.61134 ] } },
{ "type": "Feature", "properties": { "address": "1st Ave. Garage N. (Stairs)", "city": " Seattle", "state": " WA", "zip": null, "Latitude": 47.611338, "Longitude": -122.343151 }, "geometry": { "type": "Point", "coordinates": [ -122.34315, 47.61134 ] } },
{ "type": "Feature", "properties": { "address": "1st Ave. N. & Denny Way", "city": " Seattle", "state": " WA", "zip": null, "Latitude": 47.618725, "Longitude": -122.355454 }, "geometry": { "type": "Point", "coordinates": [ -122.35545, 47.61872 ] } },
{ "type": "Feature", "properties": { "address": "1st Ave. N. & Roy St.", "city": " Seattle", "state": " WA", "zip": null, "Latitude": 47.625451, "Longitude": -122.355399 }, "geometry": { "type": "Point", "coordinates": [ -122.3554, 47.62545 ] } },
{ "type": "Feature", "properties": { "address": "1st Ave. S. @ DMS S\/O Spokane St.", "city": " Seattle", "state": " WA", "zip": null, "Latitude": 47.482181, "Longitude": -122.333675 }, "geometry": { "type": "Point", "coordinates": [ -122.33367, 47.48218 ] } },
{ "type": "Feature", "properties": { "address": "1st Ave. S. & S. Atlantic St.", "city": " Seattle", "state": " WA", "zip": null, "Latitude": 47.590309, "Longitude": -122.334197 }, "geometry": { "type": "Point", "coordinates": [ -122.3342, 47.59031 ] } },
{ "type": "Feature", "properties": { "address": "1st Ave. S. & S. Jackson St.", "city": " Seattle", "state": " WA", "zip": null, "Latitude": 47.599202, "Longitude": -122.33419 }, "geometry": { "type": "Point", "coordinates": [ -122.33419, 47.5992 ] } },
{ "type": "Feature", "properties": { "address": "1st Ave. S. & S. Royal Brougham Way", "city": " Seattle", "state": " WA", "zip": null, "Latitude": 47.592405, "Longitude": -122.334202 }, "geometry": { "type": "Point", "coordinates": [ -122.3342, 47.5924 ] } },
{ "type": "Feature", "properties": { "address": "1st Ave. S. & S. Royal Brougham Way DMS", "city": " Seattle", "state": " WA", "zip": null, "Latitude": 47.592405, "Longitude": -122.334202 }, "geometry": { "type": "Point", "coordinates": [ -122.3342, 47.5924 ] } },
{ "type": "Feature", "properties": { "address": "1st Ave. S. \/ S. King St.", "city": " Seattle", "state": " WA", "zip": null, "Latitude": 47.59829, "Longitude": -122.334193 }, "geometry": { "type": "Point", "coordinates": [ -122.33419, 47.59829 ] } },
{ "type": "Feature", "properties": { "address": "23rd Ave. E. & E. Aloha St.", "city": " Seattle", "state": " WA", "zip": null, "Latitude": 47.626813, "Longitude": -122.302382 }, "geometry": { "type": "Point", "coordinates": [ -122.30238, 47.62681 ] } },
{ "type": "Feature", "properties": { "address": "23rd Ave. E. & E. Cherry St.", "city": " Seattle", "state": " WA", "zip": null, "Latitude": 47.608007, "Longitude": -122.302772 }, "geometry": { "type": "Point", "coordinates": [ -122.30277, 47.60801 ] } },
{ "type": "Feature", "properties": { "address": "23rd Ave. E. & E. Madison St.", "city": " Seattle", "state": " WA", "zip": null, "Latitude": 47.619169, "Longitude": -122.302549 }, "geometry": { "type": "Point", "coordinates": [ -122.30255, 47.61917 ] } },
{ "type": "Feature", "properties": { "address": "23rd Ave. E. & E. Union St.", "city": " Seattle", "state": " WA", "zip": null, "Latitude": 47.612939, "Longitude": -122.302712 }, "geometry": { "type": "Point", "coordinates": [ -122.30271, 47.61294 ] } },
{ "type": "Feature", "properties": { "address": "23rd Ave. E. & S. Jackson St.", "city": " Seattle", "state": " WA", "zip": null, "Latitude": 47.599278, "Longitude": -122.302235 }, "geometry": { "type": "Point", "coordinates": [ -122.30223, 47.59928 ] } },
{ "type": "Feature", "properties": { "address": "23rd Ave. S. & Rainier Ave. S", "city": " Seattle", "state": " WA", "zip": null, "Latitude": 47.584499, "Longitude": -122.302911 }, "geometry": { "type": "Point", "coordinates": [ -122.30291, 47.5845 ] } },
{ "type": "Feature", "properties": { "address": "23rd Ave. S. & S. Judkins St.", "city": " Seattle", "state": " WA", "zip": null, "Latitude": 47.591891, "Longitude": -122.302502 }, "geometry": { "type": "Point", "coordinates": [ -122.3025, 47.59189 ] } },
{ "type": "Feature", "properties": { "address": "23rd Ave. S. & S. Massachuetts St.", "city": " Seattle", "state": " WA", "zip": null, "Latitude": 47.577938, "Longitude": -122.303177 }, "geometry": { "type": "Point", "coordinates": [ -122.30318, 47.57794 ] } },
{ "type": "Feature", "properties": { "address": "23rdv Ave. E. & E. Yesler Way", "city": " Seattle", "state": " WA", "zip": null, "Latitude": 47.601665, "Longitude": -122.302335 }, "geometry": { "type": "Point", "coordinates": [ -122.30233, 47.60166 ] } },
{ "type": "Feature", "properties": { "address": "24th Ave. E. & E. Boyer St.", "city": " Seattle", "state": " WA", "zip": null, "Latitude": 47.635242, "Longitude": -122.301567 }, "geometry": { "type": "Point", "coordinates": [ -122.30157, 47.63524 ] } },
{ "type": "Feature", "properties": { "address": "24th Ave. N. E. & N. E. Northgate Way", "city": " Seattle", "state": " WA", "zip": null, "Latitude": 47.709097, "Longitude": -122.303602 }, "geometry": { "type": "Point", "coordinates": [ -122.3036, 47.7091 ] } },
{ "type": "Feature", "properties": { "address": "25th Ave. N. E. & N. E. 44th St.", "city": " Seattle", "state": " WA", "zip": null, "Latitude": 47.234469, "Longitude": -122.282714 }, "geometry": { "type": "Point", "coordinates": [ -122.28271, 47.23447 ] } },
{ "type": "Feature", "properties": { "address": "28th Ave. E. & E. Madison St.", "city": " Seattle", "state": " WA", "zip": null, "Latitude": 47.623315, "Longitude": -122.296426 }, "geometry": { "type": "Point", "coordinates": [ -122.29643, 47.62331 ] } },
{ "type": "Feature", "properties": { "address": "2nd Ave. & Battery St.", "city": " Seattle", "state": " WA", "zip": null, "Latitude": 47.614807, "Longitude": -122.346955 }, "geometry": { "type": "Point", "coordinates": [ -122.34695, 47.61481 ] } },
{ "type": "Feature", "properties": { "address": "2nd Ave. & Blanchard St.", "city": " Seattle", "state": " WA", "zip": null, "Latitude": 47.613268, "Longitude": -122.344355 }, "geometry": { "type": "Point", "coordinates": [ -122.34435, 47.61327 ] } },
{ "type": "Feature", "properties": { "address": "2nd Ave. & Cherry St.", "city": " Seattle", "state": " WA", "zip": null, "Latitude": 47.603018, "Longitude": -122.333174 }, "geometry": { "type": "Point", "coordinates": [ -122.33317, 47.60302 ] } },
{ "type": "Feature", "properties": { "address": "2nd Ave. & Columbia St.", "city": " Seattle", "state": " WA", "zip": null, "Latitude": 47.60373, "Longitude": -122.333827 }, "geometry": { "type": "Point", "coordinates": [ -122.33383, 47.60373 ] } },
{ "type": "Feature", "properties": { "address": "2nd Ave. & Denny Way", "city": " Seattle", "state": " WA", "zip": null, "Latitude": 47.61859, "Longitude": -122.352841 }, "geometry": { "type": "Point", "coordinates": [ -122.35284, 47.61859 ] } },
{ "type": "Feature", "properties": { "address": "2nd Ave. & James St.", "city": " Seattle", "state": " WA", "zip": null, "Latitude": 47.602304, "Longitude": -122.332521 }, "geometry": { "type": "Point", "coordinates": [ -122.33252, 47.6023 ] } },
{ "type": "Feature", "properties": { "address": "2nd Ave. & Madison St.", "city": " Seattle", "state": " WA", "zip": null, "Latitude": 47.605157, "Longitude": -122.335131 }, "geometry": { "type": "Point", "coordinates": [ -122.33513, 47.60516 ] } },
{ "type": "Feature", "properties": { "address": "2nd Ave. & Marion St.", "city": " Seattle", "state": " WA", "zip": null, "Latitude": 47.604445, "Longitude": -122.334479 }, "geometry": { "type": "Point", "coordinates": [ -122.33448, 47.60444 ] } },
{ "type": "Feature", "properties": { "address": "2nd Ave. & Pike St.", "city": " Seattle", "state": " WA", "zip": null, "Latitude": 47.609283, "Longitude": -122.338906 }, "geometry": { "type": "Point", "coordinates": [ -122.33891, 47.60928 ] } },
{ "type": "Feature", "properties": { "address": "2nd Ave. & Pine St.", "city": " Seattle", "state": " WA", "zip": null, "Latitude": 47.610277, "Longitude": -122.339814 }, "geometry": { "type": "Point", "coordinates": [ -122.33981, 47.61028 ] } },
{ "type": "Feature", "properties": { "address": "2nd Ave. & Seneca St.", "city": " Seattle", "state": " WA", "zip": null, "Latitude": 47.606584, "Longitude": -122.336435 }, "geometry": { "type": "Point", "coordinates": [ -122.33643, 47.60658 ] } },
{ "type": "Feature", "properties": { "address": "2nd Ave. & Spring St.", "city": " Seattle", "state": " WA", "zip": null, "Latitude": 47.605157, "Longitude": -122.335131 }, "geometry": { "type": "Point", "coordinates": [ -122.33513, 47.60516 ] } },
{ "type": "Feature", "properties": { "address": "2nd Ave. & St.ewart St.", "city": " Seattle", "state": " WA", "zip": null, "Latitude": 47.610962, "Longitude": -122.340454 }, "geometry": { "type": "Point", "coordinates": [ -122.34045, 47.61096 ] } },
{ "type": "Feature", "properties": { "address": "2nd Ave. & Union St.", "city": " Seattle", "state": " WA", "zip": null, "Latitude": 47.60829, "Longitude": -122.337997 }, "geometry": { "type": "Point", "coordinates": [ -122.338, 47.60829 ] } },
{ "type": "Feature", "properties": { "address": "2nd Ave. & University St.", "city": " Seattle", "state": " WA", "zip": null, "Latitude": 47.607296, "Longitude": -122.337088 }, "geometry": { "type": "Point", "coordinates": [ -122.33709, 47.6073 ] } },
{ "type": "Feature", "properties": { "address": "2nd Ave. & Virginia St.", "city": " Seattle", "state": " WA", "zip": null, "Latitude": 47.610962, "Longitude": -122.340454 }, "geometry": { "type": "Point", "coordinates": [ -122.34045, 47.61096 ] } },
{ "type": "Feature", "properties": { "address": "2nd Ave. & Yesler Way", "city": " Seattle", "state": " WA", "zip": null, "Latitude": 47.601717, "Longitude": -122.331985 }, "geometry": { "type": "Point", "coordinates": [ -122.33199, 47.60172 ] } },
{ "type": "Feature", "properties": { "address": "3rd & Blanchard", "city": " Seattle", "state": " WA", "zip": null, "Latitude": 47.432251, "Longitude": -121.803388 }, "geometry": { "type": "Point", "coordinates": [ -121.80339, 47.43225 ] } },
{ "type": "Feature", "properties": { "address": "3rd and Mercer", "city": " Seattle", "state": " WA", "zip": null, "Latitude": 47.615348, "Longitude": -122.346169 }, "geometry": { "type": "Point", "coordinates": [ -122.34617, 47.61535 ] } },
{ "type": "Feature", "properties": { "address": "3rd and Mercer", "city": " Seattle", "state": " WA", "zip": null, "Latitude": 47.615348, "Longitude": -122.346169 }, "geometry": { "type": "Point", "coordinates": [ -122.34617, 47.61535 ] } },
{ "type": "Feature", "properties": { "address": "3rd and Roy", "city": " Seattle", "state": " WA", "zip": null, "Latitude": 47.615348, "Longitude": -122.346169 }, "geometry": { "type": "Point", "coordinates": [ -122.34617, 47.61535 ] } },
{ "type": "Feature", "properties": { "address": "3rd Ave. & Broad St.", "city": " Seattle", "state": " WA", "zip": null, "Latitude": 47.618246, "Longitude": -122.350788 }, "geometry": { "type": "Point", "coordinates": [ -122.35079, 47.61825 ] } },
{ "type": "Feature", "properties": { "address": "3rd Ave. & Cherry St.", "city": " Seattle", "state": " WA", "zip": null, "Latitude": 47.603482, "Longitude": -122.332064 }, "geometry": { "type": "Point", "coordinates": [ -122.33206, 47.60348 ] } },
{ "type": "Feature", "properties": { "address": "3rd Ave. & James St.", "city": " Seattle", "state": " WA", "zip": null, "Latitude": 47.602767, "Longitude": -122.33141 }, "geometry": { "type": "Point", "coordinates": [ -122.33141, 47.60277 ] } },
{ "type": "Feature", "properties": { "address": "3rd Ave. & St.ewart St.", "city": " Seattle", "state": " WA", "zip": null, "Latitude": 47.611627, "Longitude": -122.339594 }, "geometry": { "type": "Point", "coordinates": [ -122.33959, 47.61163 ] } },
{ "type": "Feature", "properties": { "address": "3rd Ave. & University St.", "city": " Seattle", "state": " WA", "zip": null, "Latitude": 47.607761, "Longitude": -122.335978 }, "geometry": { "type": "Point", "coordinates": [ -122.33598, 47.60776 ] } },
{ "type": "Feature", "properties": { "address": "3rd Ave. & Yesler Way", "city": " Seattle", "state": " WA", "zip": null, "Latitude": 47.601714, "Longitude": -122.330266 }, "geometry": { "type": "Point", "coordinates": [ -122.33027, 47.60171 ] } },
{ "type": "Feature", "properties": { "address": "3rd Ave. N. & Roy St.", "city": " Seattle", "state": " WA", "zip": null, "Latitude": 47.625436, "Longitude": -122.351482 }, "geometry": { "type": "Point", "coordinates": [ -122.35148, 47.62544 ] } },
{ "type": "Feature", "properties": { "address": "4th & Ave. & Columbia St.", "city": " Seattle", "state": " WA", "zip": null, "Latitude": 47.608643, "Longitude": -122.335302 }, "geometry": { "type": "Point", "coordinates": [ -122.3353, 47.60864 ] } },
{ "type": "Feature", "properties": { "address": "4th & Lander", "city": " Seattle", "state": " WA", "zip": null, "Latitude": 47.432251, "Longitude": -121.803388 }, "geometry": { "type": "Point", "coordinates": [ -121.80339, 47.43225 ] } },
{ "type": "Feature", "properties": { "address": "4th and Roy", "city": " Seattle", "state": " WA", "zip": null, "Latitude": 47.608643, "Longitude": -122.335302 }, "geometry": { "type": "Point", "coordinates": [ -122.3353, 47.60864 ] } },
{ "type": "Feature", "properties": { "address": "4th Ave. & Bell St.", "city": " Seattle", "state": " WA", "zip": null, "Latitude": 47.615367, "Longitude": -122.343936 }, "geometry": { "type": "Point", "coordinates": [ -122.34394, 47.61537 ] } },
{ "type": "Feature", "properties": { "address": "4th Ave. & Cedar St.", "city": " Seattle", "state": " WA", "zip": null, "Latitude": 47.617794, "Longitude": -122.348041 }, "geometry": { "type": "Point", "coordinates": [ -122.34804, 47.61779 ] } },
{ "type": "Feature", "properties": { "address": "4th Ave. & Cherry St.", "city": " Seattle", "state": " WA", "zip": null, "Latitude": 47.603947, "Longitude": -122.330953 }, "geometry": { "type": "Point", "coordinates": [ -122.33095, 47.60395 ] } },
{ "type": "Feature", "properties": { "address": "4th Ave. & Denny Way", "city": " Seattle", "state": " WA", "zip": null, "Latitude": 47.539038, "Longitude": -122.026227 }, "geometry": { "type": "Point", "coordinates": [ -122.02623, 47.53904 ] } },
{ "type": "Feature", "properties": { "address": "4th Ave. & James St.", "city": " Seattle", "state": " WA", "zip": null, "Latitude": 47.603231, "Longitude": -122.330299 }, "geometry": { "type": "Point", "coordinates": [ -122.3303, 47.60323 ] } },
{ "type": "Feature", "properties": { "address": "4th Ave. & Olive Way", "city": " Seattle", "state": " WA", "zip": null, "Latitude": 47.612292, "Longitude": -122.338734 }, "geometry": { "type": "Point", "coordinates": [ -122.33873, 47.61229 ] } },
{ "type": "Feature", "properties": { "address": "4th Ave. & Pine St.", "city": " Seattle", "state": " WA", "zip": null, "Latitude": 47.611205, "Longitude": -122.337594 }, "geometry": { "type": "Point", "coordinates": [ -122.33759, 47.6112 ] } },
{ "type": "Feature", "properties": { "address": "4th Ave. & Seattle", "city": " Seattle", "state": " WA", "zip": null, "Latitude": 47.741612, "Longitude": -121.977789 }, "geometry": { "type": "Point", "coordinates": [ -121.97779, 47.74161 ] } },
{ "type": "Feature", "properties": { "address": "4th Ave. & Spring St.", "city": " Seattle", "state": " WA", "zip": null, "Latitude": 47.605371, "Longitude": -122.332258 }, "geometry": { "type": "Point", "coordinates": [ -122.33226, 47.60537 ] } },
{ "type": "Feature", "properties": { "address": "4th Ave. & Union St.", "city": " Seattle", "state": " WA", "zip": null, "Latitude": 47.609218, "Longitude": -122.335777 }, "geometry": { "type": "Point", "coordinates": [ -122.33578, 47.60922 ] } },
{ "type": "Feature", "properties": { "address": "4th Ave. & University St.", "city": " Seattle", "state": " WA", "zip": null, "Latitude": 47.608225, "Longitude": -122.334868 }, "geometry": { "type": "Point", "coordinates": [ -122.33487, 47.60822 ] } },
{ "type": "Feature", "properties": { "address": "4th Ave. & Virginia St.", "city": " Seattle", "state": " WA", "zip": null, "Latitude": 47.612292, "Longitude": -122.338734 }, "geometry": { "type": "Point", "coordinates": [ -122.33873, 47.61229 ] } },
{ "type": "Feature", "properties": { "address": "4th Ave. N. & Broad St.", "city": " Seattle", "state": " WA", "zip": null, "Latitude": 47.620799, "Longitude": -122.348891 }, "geometry": { "type": "Point", "coordinates": [ -122.34889, 47.6208 ] } },
{ "type": "Feature", "properties": { "address": "4th Ave. N. & Roy St.", "city": " Seattle", "state": " WA", "zip": null, "Latitude": 47.625426, "Longitude": -122.348871 }, "geometry": { "type": "Point", "coordinates": [ -122.34887, 47.62543 ] } },
{ "type": "Feature", "properties": { "address": "4th Ave. S. & I-90 TD Northbound", "city": " Seattle", "state": " WA", "zip": null, "Latitude": 47.590318, "Longitude": -122.328918 }, "geometry": { "type": "Point", "coordinates": [ -122.32892, 47.59032 ] } },
{ "type": "Feature", "properties": { "address": "4th Ave. S. & I-90 TD Southbound", "city": " Seattle", "state": " WA", "zip": null, "Latitude": 47.590318, "Longitude": -122.328918 }, "geometry": { "type": "Point", "coordinates": [ -122.32892, 47.59032 ] } },
{ "type": "Feature", "properties": { "address": "4th Ave. S. & I-90 Westbound 4th Ave. offramp", "city": " Seattle", "state": " WA", "zip": null, "Latitude": 47.590318, "Longitude": -122.328918 }, "geometry": { "type": "Point", "coordinates": [ -122.32892, 47.59032 ] } },
{ "type": "Feature", "properties": { "address": "4th Ave. S. & S. Jackson St.", "city": " Seattle", "state": " WA", "zip": null, "Latitude": 47.600034, "Longitude": -122.328977 }, "geometry": { "type": "Point", "coordinates": [ -122.32898, 47.60003 ] } },
{ "type": "Feature", "properties": { "address": "4th Ave. S. & S. Royal Brougham Way", "city": " Seattle", "state": " WA", "zip": null, "Latitude": 47.592403, "Longitude": -122.329051 }, "geometry": { "type": "Point", "coordinates": [ -122.32905, 47.5924 ] } },
{ "type": "Feature", "properties": { "address": "4th Ave. S. & S. Washington St.", "city": " Seattle", "state": " WA", "zip": null, "Latitude": 47.600873, "Longitude": -122.328986 }, "geometry": { "type": "Point", "coordinates": [ -122.32899, 47.60087 ] } },
{ "type": "Feature", "properties": { "address": "4th Ave. S. S\/O Spokane St. DMS", "city": " Seattle", "state": " WA", "zip": null, "Latitude": 47.503407, "Longitude": -122.328188 }, "geometry": { "type": "Point", "coordinates": [ -122.32819, 47.50341 ] } },
{ "type": "Feature", "properties": { "address": "4th Ave. Southbound offramp & Edgar Martinez Dr s", "city": " Seattle", "state": " WA", "zip": null, "Latitude": 47.610697, "Longitude": -122.337214 }, "geometry": { "type": "Point", "coordinates": [ -122.33721, 47.6107 ] } },
{ "type": "Feature", "properties": { "address": "5th & Cherry", "city": " Seattle", "state": " WA", "zip": null, "Latitude": 47.604411, "Longitude": -122.329843 }, "geometry": { "type": "Point", "coordinates": [ -122.32984, 47.60441 ] } },
{ "type": "Feature", "properties": { "address": "5th & University St.", "city": " Seattle", "state": " WA", "zip": null, "Latitude": 47.608691, "Longitude": -122.333759 }, "geometry": { "type": "Point", "coordinates": [ -122.33376, 47.60869 ] } },
{ "type": "Feature", "properties": { "address": "5th and Mercer", "city": " Seattle", "state": " WA", "zip": null, "Latitude": 47.624606, "Longitude": -122.363242 }, "geometry": { "type": "Point", "coordinates": [ -122.36324, 47.62461 ] } },
{ "type": "Feature", "properties": { "address": "5th and Roy", "city": " Seattle", "state": " WA", "zip": null, "Latitude": 47.313068, "Longitude": -122.208197 }, "geometry": { "type": "Point", "coordinates": [ -122.2082, 47.31307 ] } },
{ "type": "Feature", "properties": { "address": "5th Ave. & Bell St.", "city": " Seattle", "state": " WA", "zip": null, "Latitude": 47.616035, "Longitude": -122.343071 }, "geometry": { "type": "Point", "coordinates": [ -122.34307, 47.61603 ] } },
{ "type": "Feature", "properties": { "address": "5th Ave. & Denny Way", "city": " Seattle", "state": " WA", "zip": null, "Latitude": 47.53853, "Longitude": -122.025749 }, "geometry": { "type": "Point", "coordinates": [ -122.02575, 47.53853 ] } },
{ "type": "Feature", "properties": { "address": "5th Ave. & James St.", "city": " Seattle", "state": " WA", "zip": null, "Latitude": 47.603696, "Longitude": -122.329189 }, "geometry": { "type": "Point", "coordinates": [ -122.32919, 47.6037 ] } },
{ "type": "Feature", "properties": { "address": "5th Ave. & Jefferson St.", "city": " Seattle", "state": " WA", "zip": null, "Latitude": 47.602982, "Longitude": -122.328536 }, "geometry": { "type": "Point", "coordinates": [ -122.32854, 47.60298 ] } },
{ "type": "Feature", "properties": { "address": "5th Ave. & Lenora St.", "city": " Seattle", "state": " WA", "zip": null, "Latitude": 47.614503, "Longitude": -122.340463 }, "geometry": { "type": "Point", "coordinates": [ -122.34046, 47.6145 ] } },
{ "type": "Feature", "properties": { "address": "5th Ave. & Madison St.", "city": " Seattle", "state": " WA", "zip": null, "Latitude": 47.60655, "Longitude": -122.3318 }, "geometry": { "type": "Point", "coordinates": [ -122.3318, 47.60655 ] } },
{ "type": "Feature", "properties": { "address": "5th Ave. & Olive Way", "city": " Seattle", "state": " WA", "zip": null, "Latitude": 47.612678, "Longitude": -122.337362 }, "geometry": { "type": "Point", "coordinates": [ -122.33736, 47.61268 ] } },
{ "type": "Feature", "properties": { "address": "5th Ave. & Pike St.", "city": " Seattle", "state": " WA", "zip": null, "Latitude": 47.610676, "Longitude": -122.335576 }, "geometry": { "type": "Point", "coordinates": [ -122.33558, 47.61068 ] } },
{ "type": "Feature", "properties": { "address": "5th Ave. & Pine St.", "city": " Seattle", "state": " WA", "zip": null, "Latitude": 47.61167, "Longitude": -122.336486 }, "geometry": { "type": "Point", "coordinates": [ -122.33649, 47.61167 ] } },
{ "type": "Feature", "properties": { "address": "5th Ave. & Seneca St.", "city": " Seattle", "state": " WA", "zip": null, "Latitude": 47.607977, "Longitude": -122.333106 }, "geometry": { "type": "Point", "coordinates": [ -122.33311, 47.60798 ] } },
{ "type": "Feature", "properties": { "address": "5th Ave. & Spring St.", "city": " Seattle", "state": " WA", "zip": null, "Latitude": 47.60655, "Longitude": -122.3318 }, "geometry": { "type": "Point", "coordinates": [ -122.3318, 47.60655 ] } },
{ "type": "Feature", "properties": { "address": "5th Ave. & Stewart St.", "city": " Seattle", "state": " WA", "zip": null, "Latitude": 47.61298, "Longitude": -122.337846 }, "geometry": { "type": "Point", "coordinates": [ -122.33785, 47.61298 ] } },
{ "type": "Feature", "properties": { "address": "5th Ave. & Virginia St.", "city": " Seattle", "state": " WA", "zip": null, "Latitude": 47.61298, "Longitude": -122.337846 }, "geometry": { "type": "Point", "coordinates": [ -122.33785, 47.61298 ] } },
{ "type": "Feature", "properties": { "address": "5th Ave. Garage N. (Gates Foundation)", "city": " Seattle", "state": " WA", "zip": null, "Latitude": 47.611565, "Longitude": -122.336582 }, "geometry": { "type": "Point", "coordinates": [ -122.33658, 47.61156 ] } },
{ "type": "Feature", "properties": { "address": "5th Ave. Garage S.W. (Next to Elevators)", "city": " Seattle", "state": " WA", "zip": null, "Latitude": 47.611565, "Longitude": -122.336582 }, "geometry": { "type": "Point", "coordinates": [ -122.33658, 47.61156 ] } },
{ "type": "Feature", "properties": { "address": "5th Ave. N. & Broad St.", "city": " Seattle", "state": " WA", "zip": null, "Latitude": 47.620905, "Longitude": -122.347603 }, "geometry": { "type": "Point", "coordinates": [ -122.3476, 47.62091 ] } },
{ "type": "Feature", "properties": { "address": "5th Ave. N. & Harrison St.", "city": " Seattle", "state": " WA", "zip": null, "Latitude": 47.622063, "Longitude": -122.347588 }, "geometry": { "type": "Point", "coordinates": [ -122.34759, 47.62206 ] } },
{ "type": "Feature", "properties": { "address": "5th Ave. N. & Mercer St.", "city": " Seattle", "state": " WA", "zip": null, "Latitude": 47.624548, "Longitude": -122.347561 }, "geometry": { "type": "Point", "coordinates": [ -122.34756, 47.62455 ] } },
{ "type": "Feature", "properties": { "address": "5th Ave. N. E. & N. E. Northgate Way", "city": " Seattle", "state": " WA", "zip": null, "Latitude": 47.708591, "Longitude": -122.323276 }, "geometry": { "type": "Point", "coordinates": [ -122.32328, 47.70859 ] } },
{ "type": "Feature", "properties": { "address": "5th Ave. S. & S. Jackson St.", "city": " Seattle", "state": " WA", "zip": null, "Latitude": 47.599193, "Longitude": -122.327669 }, "geometry": { "type": "Point", "coordinates": [ -122.32767, 47.59919 ] } },
{ "type": "Feature", "properties": { "address": "6th and Spring St.", "city": " Seattle", "state": " WA", "zip": null, "Latitude": 47.609573, "Longitude": -122.333078 }, "geometry": { "type": "Point", "coordinates": [ -122.33308, 47.60957 ] } },
{ "type": "Feature", "properties": { "address": "6th Ave. & Cherry St.", "city": " Seattle", "state": " WA", "zip": null, "Latitude": 47.604875, "Longitude": -122.328735 }, "geometry": { "type": "Point", "coordinates": [ -122.32873, 47.60487 ] } },
{ "type": "Feature", "properties": { "address": "6th Ave. & James St.", "city": " Seattle", "state": " WA", "zip": null, "Latitude": 47.604158, "Longitude": -122.32808 }, "geometry": { "type": "Point", "coordinates": [ -122.32808, 47.60416 ] } },
{ "type": "Feature", "properties": { "address": "6th Ave. & Madison St.", "city": " Seattle", "state": " WA", "zip": null, "Latitude": 47.607015, "Longitude": -122.330691 }, "geometry": { "type": "Point", "coordinates": [ -122.33069, 47.60701 ] } },
{ "type": "Feature", "properties": { "address": "6th Ave. & Olive Way", "city": " Seattle", "state": " WA", "zip": null, "Latitude": 47.613127, "Longitude": -122.336284 }, "geometry": { "type": "Point", "coordinates": [ -122.33628, 47.61313 ] } },
{ "type": "Feature", "properties": { "address": "6th Ave. & Pine St.", "city": " Seattle", "state": " WA", "zip": null, "Latitude": 47.612134, "Longitude": -122.335375 }, "geometry": { "type": "Point", "coordinates": [ -122.33537, 47.61213 ] } },
{ "type": "Feature", "properties": { "address": "6th Ave. & Union St.", "city": " Seattle", "state": " WA", "zip": null, "Latitude": 47.610147, "Longitude": -122.333558 }, "geometry": { "type": "Point", "coordinates": [ -122.33356, 47.61015 ] } },
{ "type": "Feature", "properties": { "address": "6th Ave. & University St.", "city": " Seattle", "state": " WA", "zip": null, "Latitude": 47.609158, "Longitude": -122.332642 }, "geometry": { "type": "Point", "coordinates": [ -122.33264, 47.60916 ] } },
{ "type": "Feature", "properties": { "address": "6th Ave. & Virginia St.", "city": " Seattle", "state": " WA", "zip": null, "Latitude": 47.613945, "Longitude": -122.337565 }, "geometry": { "type": "Point", "coordinates": [ -122.33756, 47.61395 ] } },
{ "type": "Feature", "properties": { "address": "6th Ave. & Westlake Ave.", "city": " Seattle", "state": " WA", "zip": null, "Latitude": 47.613945, "Longitude": -122.337565 }, "geometry": { "type": "Point", "coordinates": [ -122.33756, 47.61395 ] } },
{ "type": "Feature", "properties": { "address": "7th Ave. & Lenora St.", "city": " Seattle", "state": " WA", "zip": null, "Latitude": 47.615824, "Longitude": -122.338755 }, "geometry": { "type": "Point", "coordinates": [ -122.33876, 47.61582 ] } },
{ "type": "Feature", "properties": { "address": "7th Ave. & Madison St.", "city": " Seattle", "state": " WA", "zip": null, "Latitude": 47.607478, "Longitude": -122.329584 }, "geometry": { "type": "Point", "coordinates": [ -122.32958, 47.60748 ] } },
{ "type": "Feature", "properties": { "address": "7th Ave. & Olive Way", "city": " Seattle", "state": " WA", "zip": null, "Latitude": 47.613594, "Longitude": -122.335174 }, "geometry": { "type": "Point", "coordinates": [ -122.33517, 47.61359 ] } },
{ "type": "Feature", "properties": { "address": "7th Ave. & Pike St.", "city": " Seattle", "state": " WA", "zip": null, "Latitude": 47.611605, "Longitude": -122.333356 }, "geometry": { "type": "Point", "coordinates": [ -122.33336, 47.6116 ] } },
{ "type": "Feature", "properties": { "address": "7th Ave. & Pine St.", "city": " Seattle", "state": " WA", "zip": null, "Latitude": 47.612598, "Longitude": -122.334263 }, "geometry": { "type": "Point", "coordinates": [ -122.33426, 47.6126 ] } },
{ "type": "Feature", "properties": { "address": "7th Ave. & St.ewart St.", "city": " Seattle", "state": " WA", "zip": null, "Latitude": 47.614286, "Longitude": -122.336156 }, "geometry": { "type": "Point", "coordinates": [ -122.33616, 47.61429 ] } },
{ "type": "Feature", "properties": { "address": "7th Ave. & Union St.", "city": " Seattle", "state": " WA", "zip": null, "Latitude": 47.610611, "Longitude": -122.332449 }, "geometry": { "type": "Point", "coordinates": [ -122.33245, 47.61061 ] } },
{ "type": "Feature", "properties": { "address": "8th Ave. & Madison St.", "city": " Seattle", "state": " WA", "zip": null, "Latitude": 47.607943, "Longitude": -122.328473 }, "geometry": { "type": "Point", "coordinates": [ -122.32847, 47.60794 ] } },
{ "type": "Feature", "properties": { "address": "8th Ave. & Virginia St.", "city": " Seattle", "state": " WA", "zip": null, "Latitude": 47.614951, "Longitude": -122.335297 }, "geometry": { "type": "Point", "coordinates": [ -122.3353, 47.61495 ] } },
{ "type": "Feature", "properties": { "address": "9th and Broad\/Roy", "city": " Seattle", "state": " WA", "zip": null, "Latitude": 47.609556, "Longitude": -122.328107 }, "geometry": { "type": "Point", "coordinates": [ -122.32811, 47.60956 ] } },
{ "type": "Feature", "properties": { "address": "9th and Mercer", "city": " Seattle", "state": " WA", "zip": null, "Latitude": 47.609556, "Longitude": -122.328107 }, "geometry": { "type": "Point", "coordinates": [ -122.32811, 47.60956 ] } },
{ "type": "Feature", "properties": { "address": "9th and Republican", "city": " Seattle", "state": " WA", "zip": null, "Latitude": 47.609556, "Longitude": -122.328107 }, "geometry": { "type": "Point", "coordinates": [ -122.32811, 47.60956 ] } },
{ "type": "Feature", "properties": { "address": "9th and Westlake", "city": " Seattle", "state": " WA", "zip": null, "Latitude": 47.609556, "Longitude": -122.328107 }, "geometry": { "type": "Point", "coordinates": [ -122.32811, 47.60956 ] } },
{ "type": "Feature", "properties": { "address": "9th Ave. & Denny Way", "city": " Seattle", "state": " WA", "zip": null, "Latitude": 47.618539, "Longitude": -122.339888 }, "geometry": { "type": "Point", "coordinates": [ -122.33989, 47.61854 ] } },
{ "type": "Feature", "properties": { "address": "9th Ave. & St.ewart St.", "city": " Seattle", "state": " WA", "zip": null, "Latitude": 47.615615, "Longitude": -122.334438 }, "geometry": { "type": "Point", "coordinates": [ -122.33444, 47.61561 ] } },
{ "type": "Feature", "properties": { "address": "Alaskan Way & Bell St.", "city": " Seattle", "state": " WA", "zip": null, "Latitude": 47.611482, "Longitude": -122.348837 }, "geometry": { "type": "Point", "coordinates": [ -122.34884, 47.61148 ] } },
{ "type": "Feature", "properties": { "address": "Alaskan Way & Blanchard St.", "city": " Seattle", "state": " WA", "zip": null, "Latitude": 47.611482, "Longitude": -122.348837 }, "geometry": { "type": "Point", "coordinates": [ -122.34884, 47.61148 ] } },
{ "type": "Feature", "properties": { "address": "Alaskan Way & Madison St.", "city": " Seattle", "state": " WA", "zip": null, "Latitude": 47.60378, "Longitude": -122.338426 }, "geometry": { "type": "Point", "coordinates": [ -122.33843, 47.60378 ] } },
{ "type": "Feature", "properties": { "address": "Alaskan Way & Marion St.", "city": " Seattle", "state": " WA", "zip": null, "Latitude": 47.603058, "Longitude": -122.337789 }, "geometry": { "type": "Point", "coordinates": [ -122.33779, 47.60306 ] } },
{ "type": "Feature", "properties": { "address": "Alaskan Way & University St.", "city": " Seattle", "state": " WA", "zip": null, "Latitude": 47.605879, "Longitude": -122.340388 }, "geometry": { "type": "Point", "coordinates": [ -122.34039, 47.60588 ] } },
{ "type": "Feature", "properties": { "address": "Alaskan Way & Vine St.", "city": " Seattle", "state": " WA", "zip": null, "Latitude": 47.613332, "Longitude": -122.352175 }, "geometry": { "type": "Point", "coordinates": [ -122.35218, 47.61333 ] } },
{ "type": "Feature", "properties": { "address": "Alaskan Way & Wall St.", "city": " Seattle", "state": " WA", "zip": null, "Latitude": 47.612802, "Longitude": -122.351168 }, "geometry": { "type": "Point", "coordinates": [ -122.35117, 47.6128 ] } },
{ "type": "Feature", "properties": { "address": "Alaskan Way & Yesler Way", "city": " Seattle", "state": " WA", "zip": null, "Latitude": 47.601715, "Longitude": -122.336584 }, "geometry": { "type": "Point", "coordinates": [ -122.33658, 47.60171 ] } },
{ "type": "Feature", "properties": { "address": "Alaskan Way S. & S. Jackson St.", "city": " Seattle", "state": " WA", "zip": null, "Latitude": 47.599205, "Longitude": -122.335911 }, "geometry": { "type": "Point", "coordinates": [ -122.33591, 47.5992 ] } },
{ "type": "Feature", "properties": { "address": "Aurora & Winona", "city": " Seattle", "state": " WA", "zip": null, "Latitude": 47.648795, "Longitude": -122.347391 }, "geometry": { "type": "Point", "coordinates": [ -122.34739, 47.64879 ] } },
{ "type": "Feature", "properties": { "address": "Aurora Ave. N. & Battery St.", "city": " Seattle", "state": " WA", "zip": null, "Latitude": 47.726327, "Longitude": -122.345012 }, "geometry": { "type": "Point", "coordinates": [ -122.34501, 47.72633 ] } },
{ "type": "Feature", "properties": { "address": "Aurora Ave. N. & Denny Way", "city": " Seattle", "state": " WA", "zip": null, "Latitude": 47.618795, "Longitude": -122.34379 }, "geometry": { "type": "Point", "coordinates": [ -122.34379, 47.61879 ] } },
{ "type": "Feature", "properties": { "address": "Aurora Ave. N. & N. 39th St.", "city": " Seattle", "state": " WA", "zip": null, "Latitude": 47.654132, "Longitude": -122.347241 }, "geometry": { "type": "Point", "coordinates": [ -122.34724, 47.65413 ] } },
{ "type": "Feature", "properties": { "address": "Aurora Ave. N. & N. Northgate Way", "city": " Seattle", "state": " WA", "zip": null, "Latitude": 47.705048, "Longitude": -122.344783 }, "geometry": { "type": "Point", "coordinates": [ -122.34478, 47.70505 ] } },
{ "type": "Feature", "properties": { "address": "Battery St. & Western Ave.", "city": " Seattle", "state": " WA", "zip": null, "Latitude": 47.613478, "Longitude": -122.348675 }, "geometry": { "type": "Point", "coordinates": [ -122.34868, 47.61348 ] } },
{ "type": "Feature", "properties": { "address": "Bell St. & Elliot Ave.", "city": " Seattle", "state": " WA", "zip": null, "Latitude": 47.612044, "Longitude": -122.348233 }, "geometry": { "type": "Point", "coordinates": [ -122.34823, 47.61204 ] } },
{ "type": "Feature", "properties": { "address": "Boren Ave. & Broadway", "city": " Seattle", "state": " WA", "zip": null, "Latitude": 47.16348, "Longitude": -122.445697 }, "geometry": { "type": "Point", "coordinates": [ -122.4457, 47.16348 ] } },
{ "type": "Feature", "properties": { "address": "Boren Ave. & E. Yesler Way", "city": " Seattle", "state": " WA", "zip": null, "Latitude": 47.602688, "Longitude": -122.31886 }, "geometry": { "type": "Point", "coordinates": [ -122.31886, 47.60269 ] } },
{ "type": "Feature", "properties": { "address": "Boren Ave. & Fairview Ave.", "city": " Seattle", "state": " WA", "zip": null, "Latitude": 47.617886, "Longitude": -122.334313 }, "geometry": { "type": "Point", "coordinates": [ -122.33431, 47.61789 ] } },
{ "type": "Feature", "properties": { "address": "Boren Ave. & James St.", "city": " Seattle", "state": " WA", "zip": null, "Latitude": 47.606482, "Longitude": -122.322531 }, "geometry": { "type": "Point", "coordinates": [ -122.32253, 47.60648 ] } },
{ "type": "Feature", "properties": { "address": "Boren Ave. & Jefferson St.", "city": " Seattle", "state": " WA", "zip": null, "Latitude": 47.605768, "Longitude": -122.321879 }, "geometry": { "type": "Point", "coordinates": [ -122.32188, 47.60577 ] } },
{ "type": "Feature", "properties": { "address": "Boren Ave. & Madison St.", "city": " Seattle", "state": " WA", "zip": null, "Latitude": 47.609336, "Longitude": -122.325141 }, "geometry": { "type": "Point", "coordinates": [ -122.32514, 47.60934 ] } },
{ "type": "Feature", "properties": { "address": "Boren Ave. & Marion St.", "city": " Seattle", "state": " WA", "zip": null, "Latitude": 47.608622, "Longitude": -122.324489 }, "geometry": { "type": "Point", "coordinates": [ -122.32449, 47.60862 ] } },
{ "type": "Feature", "properties": { "address": "Boren Ave. & Olive Way", "city": " Seattle", "state": " WA", "zip": null, "Latitude": 47.615448, "Longitude": -122.330732 }, "geometry": { "type": "Point", "coordinates": [ -122.33073, 47.61545 ] } },
{ "type": "Feature", "properties": { "address": "Boren Ave. & Spring St.", "city": " Seattle", "state": " WA", "zip": null, "Latitude": 47.609336, "Longitude": -122.325141 }, "geometry": { "type": "Point", "coordinates": [ -122.32514, 47.60934 ] } },
{ "type": "Feature", "properties": { "address": "Boren Ave. & Stewart St.", "city": " Seattle", "state": " WA", "zip": null, "Latitude": 47.616943, "Longitude": -122.33272 }, "geometry": { "type": "Point", "coordinates": [ -122.33272, 47.61694 ] } },
{ "type": "Feature", "properties": { "address": "Boren Ave. & University St.", "city": " Seattle", "state": " WA", "zip": null, "Latitude": 47.611477, "Longitude": -122.327099 }, "geometry": { "type": "Point", "coordinates": [ -122.3271, 47.61148 ] } },
{ "type": "Feature", "properties": { "address": "Broad St. & 2nd Ave..", "city": " Seattle", "state": " WA", "zip": null, "Latitude": 47.617582, "Longitude": -122.351647 }, "geometry": { "type": "Point", "coordinates": [ -122.35165, 47.61758 ] } },
{ "type": "Feature", "properties": { "address": "Broad St. & Denny Way", "city": " Seattle", "state": " WA", "zip": null, "Latitude": 47.618579, "Longitude": -122.350357 }, "geometry": { "type": "Point", "coordinates": [ -122.35036, 47.61858 ] } },
{ "type": "Feature", "properties": { "address": "Broad St. & Elliott Ave.", "city": " Seattle", "state": " WA", "zip": null, "Latitude": 47.615586, "Longitude": -122.354226 }, "geometry": { "type": "Point", "coordinates": [ -122.35423, 47.61559 ] } },
{ "type": "Feature", "properties": { "address": "Broad St. & Western Ave.", "city": " Seattle", "state": " WA", "zip": null, "Latitude": 47.616251, "Longitude": -122.353366 }, "geometry": { "type": "Point", "coordinates": [ -122.35337, 47.61625 ] } },
{ "type": "Feature", "properties": { "address": "Broadway & James St.", "city": " Seattle", "state": " WA", "zip": null, "Latitude": 47.608098, "Longitude": -122.32076 }, "geometry": { "type": "Point", "coordinates": [ -122.32076, 47.6081 ] } },
{ "type": "Feature", "properties": { "address": "Broadway & Madison St.", "city": " Seattle", "state": " WA", "zip": null, "Latitude": 47.61154, "Longitude": -122.319868 }, "geometry": { "type": "Point", "coordinates": [ -122.31987, 47.61154 ] } },
{ "type": "Feature", "properties": { "address": "Broadway & Yesler Way", "city": " Seattle", "state": " WA", "zip": null, "Latitude": 47.601699, "Longitude": -122.320739 }, "geometry": { "type": "Point", "coordinates": [ -122.32074, 47.6017 ] } },
{ "type": "Feature", "properties": { "address": "Broadway E. & E. Olive Way", "city": " Seattle", "state": " WA", "zip": null, "Latitude": 47.619906, "Longitude": -122.320875 }, "geometry": { "type": "Point", "coordinates": [ -122.32088, 47.61991 ] } },
{ "type": "Feature", "properties": { "address": "Cedar St. & Elliot Ave.", "city": " Seattle", "state": " WA", "zip": null, "Latitude": 47.61447, "Longitude": -122.352338 }, "geometry": { "type": "Point", "coordinates": [ -122.35234, 47.61447 ] } },
{ "type": "Feature", "properties": { "address": "Denny Way & Dexter Ave.", "city": " Seattle", "state": " WA", "zip": null, "Latitude": 47.618548, "Longitude": -122.342404 }, "geometry": { "type": "Point", "coordinates": [ -122.3424, 47.61855 ] } },
{ "type": "Feature", "properties": { "address": "Denny Way & Fairview Ave.", "city": " Seattle", "state": " WA", "zip": null, "Latitude": 47.618528, "Longitude": -122.334304 }, "geometry": { "type": "Point", "coordinates": [ -122.3343, 47.61853 ] } },
{ "type": "Feature", "properties": { "address": "Denny Way & Stewart St.", "city": " Seattle", "state": " WA", "zip": null, "Latitude": 47.618451, "Longitude": -122.330278 }, "geometry": { "type": "Point", "coordinates": [ -122.33028, 47.61845 ] } },
{ "type": "Feature", "properties": { "address": "Denny Way & Western Ave.", "city": " Seattle", "state": " WA", "zip": null, "Latitude": 47.618817, "Longitude": -122.35875 }, "geometry": { "type": "Point", "coordinates": [ -122.35875, 47.61882 ] } },
{ "type": "Feature", "properties": { "address": "Denny Way & Westlake Ave.", "city": " Seattle", "state": " WA", "zip": null, "Latitude": 47.618531, "Longitude": -122.338486 }, "geometry": { "type": "Point", "coordinates": [ -122.33849, 47.61853 ] } },
{ "type": "Feature", "properties": { "address": "Dexter & Republican", "city": " Seattle", "state": " WA", "zip": null, "Latitude": 47.432251, "Longitude": -121.803388 }, "geometry": { "type": "Point", "coordinates": [ -121.80339, 47.43225 ] } },
{ "type": "Feature", "properties": { "address": "Dexter and Mercer", "city": " Seattle", "state": " WA", "zip": null, "Latitude": 47.618109, "Longitude": -122.342528 }, "geometry": { "type": "Point", "coordinates": [ -122.34253, 47.61811 ] } },
{ "type": "Feature", "properties": { "address": "Dexter and Republican", "city": " Seattle", "state": " WA", "zip": null, "Latitude": 47.618109, "Longitude": -122.342528 }, "geometry": { "type": "Point", "coordinates": [ -122.34253, 47.61811 ] } },
{ "type": "Feature", "properties": { "address": "Dexter and Roy", "city": " Seattle", "state": " WA", "zip": null, "Latitude": 47.618109, "Longitude": -122.342528 }, "geometry": { "type": "Point", "coordinates": [ -122.34253, 47.61811 ] } },
{ "type": "Feature", "properties": { "address": "Dexter Ave. N. & Harrison St.", "city": " Seattle", "state": " WA", "zip": null, "Latitude": 47.622054, "Longitude": -122.342373 }, "geometry": { "type": "Point", "coordinates": [ -122.34237, 47.62205 ] } },
{ "type": "Feature", "properties": { "address": "Dexter Ave. N. & Roy St.", "city": " Seattle", "state": " WA", "zip": null, "Latitude": 47.625402, "Longitude": -122.342343 }, "geometry": { "type": "Point", "coordinates": [ -122.34234, 47.6254 ] } },
{ "type": "Feature", "properties": { "address": "Dexter Ave. N. and Aloha St.", "city": " Seattle", "state": " WA", "zip": null, "Latitude": 47.627137, "Longitude": -122.342328 }, "geometry": { "type": "Point", "coordinates": [ -122.34233, 47.62714 ] } },
{ "type": "Feature", "properties": { "address": "E. Marginal & Lander", "city": " Seattle", "state": " WA", "zip": null, "Latitude": 47.5818, "Longitude": -122.340049 }, "geometry": { "type": "Point", "coordinates": [ -122.34005, 47.5818 ] } },
{ "type": "Feature", "properties": { "address": "E. Marginal and Lander", "city": " Seattle", "state": " WA", "zip": null, "Latitude": 47.5818, "Longitude": -122.340049 }, "geometry": { "type": "Point", "coordinates": [ -122.34005, 47.5818 ] } },
{ "type": "Feature", "properties": { "address": "E. Marginal Way S. & S. Idaho St.", "city": " Seattle", "state": " WA", "zip": null, "Latitude": 47.565774, "Longitude": -122.339378 }, "geometry": { "type": "Point", "coordinates": [ -122.33938, 47.56577 ] } },
{ "type": "Feature", "properties": { "address": "E. Marginal & Hanford", "city": " Seattle", "state": " WA", "zip": null, "Latitude": 47.572427, "Longitude": -122.339826 }, "geometry": { "type": "Point", "coordinates": [ -122.33983, 47.57243 ] } },
{ "type": "Feature", "properties": { "address": "East Montlake Pl. E. & E. Roanoke St.", "city": " Seattle", "state": " WA", "zip": null, "Latitude": 47.643163, "Longitude": -122.303091 }, "geometry": { "type": "Point", "coordinates": [ -122.30309, 47.64316 ] } },
{ "type": "Feature", "properties": { "address": "Eastlake Ave. E. & Fuhrman Ave. E.", "city": " Seattle", "state": " WA", "zip": null, "Latitude": 47.650517, "Longitude": -122.322096 }, "geometry": { "type": "Point", "coordinates": [ -122.3221, 47.65052 ] } },
{ "type": "Feature", "properties": { "address": "Eastlake Ave. E. & Stewart St.", "city": " Seattle", "state": " WA", "zip": null, "Latitude": 47.619713, "Longitude": -122.329137 }, "geometry": { "type": "Point", "coordinates": [ -122.32914, 47.61971 ] } },
{ "type": "Feature", "properties": { "address": "Elliot Ave. & Wall St.", "city": " Seattle", "state": " WA", "zip": null, "Latitude": 47.613364, "Longitude": -122.350467 }, "geometry": { "type": "Point", "coordinates": [ -122.35047, 47.61336 ] } },
{ "type": "Feature", "properties": { "address": "Elliott Ave. & Bay St.", "city": " Seattle", "state": " WA", "zip": null, "Latitude": 47.617284, "Longitude": -122.356659 }, "geometry": { "type": "Point", "coordinates": [ -122.35666, 47.61728 ] } },
{ "type": "Feature", "properties": { "address": "Elliott Ave. & Western Ave.", "city": " Seattle", "state": " WA", "zip": null, "Latitude": 47.611171, "Longitude": -122.344774 }, "geometry": { "type": "Point", "coordinates": [ -122.34477, 47.61117 ] } },
{ "type": "Feature", "properties": { "address": "Elliott Ave. W & Harrison St.", "city": " Seattle", "state": " WA", "zip": null, "Latitude": 47.622139, "Longitude": -122.362697 }, "geometry": { "type": "Point", "coordinates": [ -122.3627, 47.62214 ] } },
{ "type": "Feature", "properties": { "address": "Elliott Ave. W & Prospect St.", "city": " Seattle", "state": " WA", "zip": null, "Latitude": 47.628574, "Longitude": -122.370988 }, "geometry": { "type": "Point", "coordinates": [ -122.37099, 47.62857 ] } },
{ "type": "Feature", "properties": { "address": "Elliott Ave. W & W Mercer Pl.", "city": " Seattle", "state": " WA", "zip": null, "Latitude": 47.626632, "Longitude": -122.368402 }, "geometry": { "type": "Point", "coordinates": [ -122.3684, 47.62663 ] } },
{ "type": "Feature", "properties": { "address": "Elliott Ave. W & W Mercer St.", "city": " Seattle", "state": " WA", "zip": null, "Latitude": 47.623835, "Longitude": -122.364715 }, "geometry": { "type": "Point", "coordinates": [ -122.36472, 47.62383 ] } },
{ "type": "Feature", "properties": { "address": "Fairview and Mercer", "city": " Seattle", "state": " WA", "zip": null, "Latitude": 48.010896, "Longitude": -119.673562 }, "geometry": { "type": "Point", "coordinates": [ -119.67356, 48.0109 ] } },
{ "type": "Feature", "properties": { "address": "Fairview and Republican", "city": " Seattle", "state": " WA", "zip": null, "Latitude": 48.010896, "Longitude": -119.673562 }, "geometry": { "type": "Point", "coordinates": [ -119.67356, 48.0109 ] } },
{ "type": "Feature", "properties": { "address": "Fairview Ave. N. & Eastlake Ave. E.", "city": " Seattle", "state": " WA", "zip": null, "Latitude": 47.630595, "Longitude": -122.327647 }, "geometry": { "type": "Point", "coordinates": [ -122.32765, 47.63059 ] } },
{ "type": "Feature", "properties": { "address": "Fairview Ave. N. & John St.", "city": " Seattle", "state": " WA", "zip": null, "Latitude": 47.619688, "Longitude": -122.334299 }, "geometry": { "type": "Point", "coordinates": [ -122.3343, 47.61969 ] } },
{ "type": "Feature", "properties": { "address": "Fairview Ave. N. & Republican St.", "city": " Seattle", "state": " WA", "zip": null, "Latitude": 47.62319, "Longitude": -122.334333 }, "geometry": { "type": "Point", "coordinates": [ -122.33433, 47.62319 ] } },
{ "type": "Feature", "properties": { "address": "Fairview Ave. N. & Thomas St.", "city": " Seattle", "state": " WA", "zip": null, "Latitude": 47.62086, "Longitude": -122.334332 }, "geometry": { "type": "Point", "coordinates": [ -122.33433, 47.62086 ] } },
{ "type": "Feature", "properties": { "address": "Fairview Ave. N. & Valley St.", "city": " Seattle", "state": " WA", "zip": null, "Latitude": 47.626031, "Longitude": -122.334299 }, "geometry": { "type": "Point", "coordinates": [ -122.3343, 47.62603 ] } },
{ "type": "Feature", "properties": { "address": "Greenwood Ave. N. & Holman Rd. N.", "city": " Seattle", "state": " WA", "zip": null, "Latitude": 47.705082, "Longitude": -122.355454 }, "geometry": { "type": "Point", "coordinates": [ -122.35545, 47.70508 ] } },
{ "type": "Feature", "properties": { "address": "Holman Rd. N. W. & 14th Ave. N.W.", "city": " Seattle", "state": " WA", "zip": null, "Latitude": 47.695617, "Longitude": -122.374105 }, "geometry": { "type": "Point", "coordinates": [ -122.37411, 47.69562 ] } },
{ "type": "Feature", "properties": { "address": "Howell St. & Minor Ave.", "city": " Seattle", "state": " WA", "zip": null, "Latitude": 47.616838, "Longitude": -122.330561 }, "geometry": { "type": "Point", "coordinates": [ -122.33056, 47.61684 ] } },
{ "type": "Feature", "properties": { "address": "Howell St. & Olive Way", "city": " Seattle", "state": " WA", "zip": null, "Latitude": 47.614055, "Longitude": -122.334062 }, "geometry": { "type": "Point", "coordinates": [ -122.33406, 47.61406 ] } },
{ "type": "Feature", "properties": { "address": "Howell St. & Terry St.", "city": " Seattle", "state": " WA", "zip": null, "Latitude": 47.615486, "Longitude": -122.332308 }, "geometry": { "type": "Point", "coordinates": [ -122.33231, 47.61549 ] } },
{ "type": "Feature", "properties": { "address": "Howell St. & Yale Ave.", "city": " Seattle", "state": " WA", "zip": null, "Latitude": 47.617503, "Longitude": -122.3297 }, "geometry": { "type": "Point", "coordinates": [ -122.3297, 47.6175 ] } },
{ "type": "Feature", "properties": { "address": "Lake City Way N. E. & 27th Ave. N. E.", "city": " Seattle", "state": " WA", "zip": null, "Latitude": 47.713345, "Longitude": -122.298742 }, "geometry": { "type": "Point", "coordinates": [ -122.29874, 47.71334 ] } },
{ "type": "Feature", "properties": { "address": "Lake City Way N. E. & N. E. Northgate Way", "city": " Seattle", "state": " WA", "zip": null, "Latitude": 47.710418, "Longitude": -122.300474 }, "geometry": { "type": "Point", "coordinates": [ -122.30047, 47.71042 ] } },
{ "type": "Feature", "properties": { "address": "Lenora St. & Western Ave.", "city": " Seattle", "state": " WA", "zip": null, "Latitude": 47.611171, "Longitude": -122.344774 }, "geometry": { "type": "Point", "coordinates": [ -122.34477, 47.61117 ] } },
{ "type": "Feature", "properties": { "address": "Madison St. & Minor Ave.", "city": " Seattle", "state": " WA", "zip": null, "Latitude": 47.609801, "Longitude": -122.32403 }, "geometry": { "type": "Point", "coordinates": [ -122.32403, 47.6098 ] } },
{ "type": "Feature", "properties": { "address": "Madison St. & Terry Ave.", "city": " Seattle", "state": " WA", "zip": null, "Latitude": 47.608872, "Longitude": -122.326252 }, "geometry": { "type": "Point", "coordinates": [ -122.32625, 47.60887 ] } },
{ "type": "Feature", "properties": { "address": "Madison St. & Western Ave.", "city": " Seattle", "state": " WA", "zip": null, "Latitude": 47.604228, "Longitude": -122.33735 }, "geometry": { "type": "Point", "coordinates": [ -122.33735, 47.60423 ] } },
{ "type": "Feature", "properties": { "address": "Marion St. & Western Ave.", "city": " Seattle", "state": " WA", "zip": null, "Latitude": 47.603516, "Longitude": -122.336698 }, "geometry": { "type": "Point", "coordinates": [ -122.3367, 47.60352 ] } },
{ "type": "Feature", "properties": { "address": "McCaw to Mercer Garage", "city": " Seattle", "state": " WA", "zip": null, "Latitude": 47.432251, "Longitude": -121.803388 }, "geometry": { "type": "Point", "coordinates": [ -121.80339, 47.43225 ] } },
{ "type": "Feature", "properties": { "address": "Mercer and I-5", "city": " Seattle", "state": " WA", "zip": null, "Latitude": 47.624274, "Longitude": -122.330446 }, "geometry": { "type": "Point", "coordinates": [ -122.33045, 47.62427 ] } },
{ "type": "Feature", "properties": { "address": "Mercer St. & 3rd Ave. N.", "city": " Seattle", "state": " WA", "zip": null, "Latitude": 47.624568, "Longitude": -122.351489 }, "geometry": { "type": "Point", "coordinates": [ -122.35149, 47.62457 ] } },
{ "type": "Feature", "properties": { "address": "Mercer St. & 9th Ave. N.", "city": " Seattle", "state": " WA", "zip": null, "Latitude": 47.624841, "Longitude": -122.33974 }, "geometry": { "type": "Point", "coordinates": [ -122.33974, 47.62484 ] } },
{ "type": "Feature", "properties": { "address": "Mercer St. & Dexter Ave. N.", "city": " Seattle", "state": " WA", "zip": null, "Latitude": 47.624548, "Longitude": -122.342351 }, "geometry": { "type": "Point", "coordinates": [ -122.34235, 47.62455 ] } },
{ "type": "Feature", "properties": { "address": "Mercer St. & Queen Anne Ave. N.", "city": " Seattle", "state": " WA", "zip": null, "Latitude": 47.624581, "Longitude": -122.356711 }, "geometry": { "type": "Point", "coordinates": [ -122.35671, 47.62458 ] } },
{ "type": "Feature", "properties": { "address": "Mercer St. & Warren Ave. N.", "city": " Seattle", "state": " WA", "zip": null, "Latitude": 47.624573, "Longitude": -122.3541 }, "geometry": { "type": "Point", "coordinates": [ -122.3541, 47.62457 ] } },
{ "type": "Feature", "properties": { "address": "Mercer St. & Westlake Ave. N.", "city": " Seattle", "state": " WA", "zip": null, "Latitude": 47.624551, "Longitude": -122.338437 }, "geometry": { "type": "Point", "coordinates": [ -122.33844, 47.62455 ] } },
{ "type": "Feature", "properties": { "address": "Mercer St. & Fairview Ave. N.", "city": " Seattle", "state": " WA", "zip": null, "Latitude": 47.624279, "Longitude": -122.327883 }, "geometry": { "type": "Point", "coordinates": [ -122.32788, 47.62428 ] } },
{ "type": "Feature", "properties": { "address": "Meridian Ave. N. & N. Northgate Way", "city": " Seattle", "state": " WA", "zip": null, "Latitude": 47.709568, "Longitude": -122.33401 }, "geometry": { "type": "Point", "coordinates": [ -122.33401, 47.70957 ] } },
{ "type": "Feature", "properties": { "address": "Minor Ave. & Stewart St.", "city": " Seattle", "state": " WA", "zip": null, "Latitude": 47.617608, "Longitude": -122.33186 }, "geometry": { "type": "Point", "coordinates": [ -122.33186, 47.61761 ] } },
{ "type": "Feature", "properties": { "address": "MLK Jr. Way & E. Cherry St.", "city": " Seattle", "state": " WA", "zip": null, "Latitude": 47.607994, "Longitude": -122.296256 }, "geometry": { "type": "Point", "coordinates": [ -122.29626, 47.60799 ] } },
{ "type": "Feature", "properties": { "address": "MLK Jr. Way & E. Union St.", "city": " Seattle", "state": " WA", "zip": null, "Latitude": 47.612939, "Longitude": -122.296201 }, "geometry": { "type": "Point", "coordinates": [ -122.2962, 47.61294 ] } },
{ "type": "Feature", "properties": { "address": "MLK Jr. Way & E. Yesler Way", "city": " Seattle", "state": " WA", "zip": null, "Latitude": 47.601654, "Longitude": -122.29677 }, "geometry": { "type": "Point", "coordinates": [ -122.29677, 47.60165 ] } },
{ "type": "Feature", "properties": { "address": "MLK Jr. Way & S. Jackson St.", "city": " Seattle", "state": " WA", "zip": null, "Latitude": 47.59923, "Longitude": -122.297417 }, "geometry": { "type": "Point", "coordinates": [ -122.29742, 47.59923 ] } },
{ "type": "Feature", "properties": { "address": "MLK Jr. Way & S. Judkins St.", "city": " Seattle", "state": " WA", "zip": null, "Latitude": 47.592026, "Longitude": -122.297631 }, "geometry": { "type": "Point", "coordinates": [ -122.29763, 47.59203 ] } },
{ "type": "Feature", "properties": { "address": "MLK Jr. Way & S. Massachusetts St.", "city": " Seattle", "state": " WA", "zip": null, "Latitude": 47.58831, "Longitude": -122.298052 }, "geometry": { "type": "Point", "coordinates": [ -122.29805, 47.58831 ] } },
{ "type": "Feature", "properties": { "address": "MLK Way & S. Juniper St.", "city": " Seattle", "state": " WA", "zip": null, "Latitude": 47.495604, "Longitude": -122.268528 }, "geometry": { "type": "Point", "coordinates": [ -122.26853, 47.4956 ] } },
{ "type": "Feature", "properties": { "address": "Montlake Blvd. E. & E. Hamlin St.", "city": " Seattle", "state": " WA", "zip": null, "Latitude": 47.645554, "Longitude": -122.304759 }, "geometry": { "type": "Point", "coordinates": [ -122.30476, 47.64555 ] } },
{ "type": "Feature", "properties": { "address": "Montlake Blvd. N. E. & N. E. 45th St.", "city": " Seattle", "state": " WA", "zip": null, "Latitude": 47.661038, "Longitude": -122.298145 }, "geometry": { "type": "Point", "coordinates": [ -122.29815, 47.66104 ] } },
{ "type": "Feature", "properties": { "address": "Montlake Blvd. N. E. & N. E. Pacific Pl.", "city": " Seattle", "state": " WA", "zip": null, "Latitude": 47.652111, "Longitude": -122.303297 }, "geometry": { "type": "Point", "coordinates": [ -122.3033, 47.65211 ] } },
{ "type": "Feature", "properties": { "address": "Montlake Blvd. N. E. & N. E. Pacific St.", "city": " Seattle", "state": " WA", "zip": null, "Latitude": 47.649012, "Longitude": -122.30459 }, "geometry": { "type": "Point", "coordinates": [ -122.30459, 47.64901 ] } },
{ "type": "Feature", "properties": { "address": "N. 105th St. & Dayton Ave. N.", "city": " Seattle", "state": " WA", "zip": null, "Latitude": 47.705073, "Longitude": -122.352765 }, "geometry": { "type": "Point", "coordinates": [ -122.35277, 47.70507 ] } },
{ "type": "Feature", "properties": { "address": "N. E. Pacific Pl. & N. E. Pacific St.", "city": " Seattle", "state": " WA", "zip": null, "Latitude": 47.650529, "Longitude": -122.307602 }, "geometry": { "type": "Point", "coordinates": [ -122.3076, 47.65053 ] } },
{ "type": "Feature", "properties": { "address": "Phinney Turn Rd. & N. 46th", "city": " Seattle", "state": " WA", "zip": null, "Latitude": 47.432251, "Longitude": -121.803388 }, "geometry": { "type": "Point", "coordinates": [ -121.80339, 47.43225 ] } },
{ "type": "Feature", "properties": { "address": "Queen Anne and Mercer", "city": " Seattle", "state": " WA", "zip": null, "Latitude": 47.625713, "Longitude": -122.356705 }, "geometry": { "type": "Point", "coordinates": [ -122.35671, 47.62571 ] } },
{ "type": "Feature", "properties": { "address": "Queen Anne and Roy St.", "city": " Seattle", "state": " WA", "zip": null, "Latitude": 47.625451, "Longitude": -122.356704 }, "geometry": { "type": "Point", "coordinates": [ -122.3567, 47.62545 ] } },
{ "type": "Feature", "properties": { "address": "Queen Anne Ave. N. & Harrison St.", "city": " Seattle", "state": " WA", "zip": null, "Latitude": 47.625713, "Longitude": -122.356705 }, "geometry": { "type": "Point", "coordinates": [ -122.35671, 47.62571 ] } },
{ "type": "Feature", "properties": { "address": "Queen Anne Ave. N. & Roy St.", "city": " Seattle", "state": " WA", "zip": null, "Latitude": 47.625451, "Longitude": -122.356704 }, "geometry": { "type": "Point", "coordinates": [ -122.3567, 47.62545 ] } },
{ "type": "Feature", "properties": { "address": "Rainier Ave. & S. College St.", "city": " Seattle", "state": " WA", "zip": null, "Latitude": 47.583143, "Longitude": -122.301812 }, "geometry": { "type": "Point", "coordinates": [ -122.30181, 47.58314 ] } },
{ "type": "Feature", "properties": { "address": "Rainier Ave. S. & S. Jackson St.", "city": " Seattle", "state": " WA", "zip": null, "Latitude": 47.599208, "Longitude": -122.314139 }, "geometry": { "type": "Point", "coordinates": [ -122.31414, 47.59921 ] } },
{ "type": "Feature", "properties": { "address": "Republican St. & Westlake Ave. N.", "city": " Seattle", "state": " WA", "zip": null, "Latitude": 47.623207, "Longitude": -122.338448 }, "geometry": { "type": "Point", "coordinates": [ -122.33845, 47.62321 ] } },
{ "type": "Feature", "properties": { "address": "Roosevelt Way N. E. & N. E. Northgate Way", "city": " Seattle", "state": " WA", "zip": null, "Latitude": 47.708559, "Longitude": -122.317853 }, "geometry": { "type": "Point", "coordinates": [ -122.31785, 47.70856 ] } },
{ "type": "Feature", "properties": { "address": "Roy St. & Westlake Ave.", "city": " Seattle", "state": " WA", "zip": null, "Latitude": 47.625412, "Longitude": -122.34102 }, "geometry": { "type": "Point", "coordinates": [ -122.34102, 47.62541 ] } },
{ "type": "Feature", "properties": { "address": "S. Columbian Way & 14th Ave. S.", "city": " Seattle", "state": " WA", "zip": null, "Latitude": 47.572143, "Longitude": -122.314797 }, "geometry": { "type": "Point", "coordinates": [ -122.3148, 47.57214 ] } },
{ "type": "Feature", "properties": { "address": "S. Jackson St. & 2nd Ave. Extension S.", "city": " Seattle", "state": " WA", "zip": null, "Latitude": 47.649166, "Longitude": -120.062047 }, "geometry": { "type": "Point", "coordinates": [ -120.06205, 47.64917 ] } },
{ "type": "Feature", "properties": { "address": "S. Jackson St. & 2nd Ave. S", "city": " Seattle", "state": " WA", "zip": null, "Latitude": 47.649166, "Longitude": -120.062047 }, "geometry": { "type": "Point", "coordinates": [ -120.06205, 47.64917 ] } },
{ "type": "Feature", "properties": { "address": "S. King St. & Alaskan Way S.", "city": " Seattle", "state": " WA", "zip": null, "Latitude": 47.59829, "Longitude": -122.335561 }, "geometry": { "type": "Point", "coordinates": [ -122.33556, 47.59829 ] } },
{ "type": "Feature", "properties": { "address": "S. Spokane St. @ DMS W\/O Interstate-5 ramp", "city": " Seattle", "state": " WA", "zip": null, "Latitude": 47.571753, "Longitude": -122.310078 }, "geometry": { "type": "Point", "coordinates": [ -122.31008, 47.57175 ] } },
{ "type": "Feature", "properties": { "address": "S. Spokane St. & East Marginal Way S.", "city": " Seattle", "state": " WA", "zip": null, "Latitude": 47.571377, "Longitude": -122.356522 }, "geometry": { "type": "Point", "coordinates": [ -122.35652, 47.57138 ] } },
{ "type": "Feature", "properties": { "address": "Spring St. & Western Ave.", "city": " Seattle", "state": " WA", "zip": null, "Latitude": 47.604942, "Longitude": -122.338003 }, "geometry": { "type": "Point", "coordinates": [ -122.338, 47.60494 ] } },
{ "type": "Feature", "properties": { "address": "Stewart & Westlake", "city": " Seattle", "state": " WA", "zip": null, "Latitude": 47.61298, "Longitude": -122.337846 }, "geometry": { "type": "Point", "coordinates": [ -122.33785, 47.61298 ] } },
{ "type": "Feature", "properties": { "address": "Stewart and I-5", "city": " Seattle", "state": " WA", "zip": null, "Latitude": 47.618272, "Longitude": -122.331001 }, "geometry": { "type": "Point", "coordinates": [ -122.331, 47.61827 ] } },
{ "type": "Feature", "properties": { "address": "S.W. Spokane St. & Harbor Ave. S.W.", "city": " Seattle", "state": " WA", "zip": null, "Latitude": 47.576811, "Longitude": -122.371458 }, "geometry": { "type": "Point", "coordinates": [ -122.37146, 47.57681 ] } },
{ "type": "Feature", "properties": { "address": "Taylor and Mercer", "city": " Seattle", "state": " WA", "zip": null, "Latitude": 47.618229, "Longitude": -122.34645 }, "geometry": { "type": "Point", "coordinates": [ -122.34645, 47.61823 ] } },
{ "type": "Feature", "properties": { "address": "Terminal 18", "city": " Seattle", "state": " WA", "zip": null, "Latitude": 47.432251, "Longitude": -121.803388 }, "geometry": { "type": "Point", "coordinates": [ -121.80339, 47.43225 ] } },
{ "type": "Feature", "properties": { "address": "Terry and Mercer", "city": " Seattle", "state": " WA", "zip": null, "Latitude": 47.609308, "Longitude": -122.326344 }, "geometry": { "type": "Point", "coordinates": [ -122.32634, 47.60931 ] } },
{ "type": "Feature", "properties": { "address": "Terry Ave. & Virginia St.", "city": " Seattle", "state": " WA", "zip": null, "Latitude": 47.616278, "Longitude": -122.333579 }, "geometry": { "type": "Point", "coordinates": [ -122.33358, 47.61628 ] } },
{ "type": "Feature", "properties": { "address": "Valley and Fairview", "city": " Seattle", "state": " WA", "zip": null, "Latitude": 47.432251, "Longitude": -121.803388 }, "geometry": { "type": "Point", "coordinates": [ -121.80339, 47.43225 ] } },
{ "type": "Feature", "properties": { "address": "Virginia St. & Westlake Ave.", "city": " Seattle", "state": " WA", "zip": null, "Latitude": 47.61483, "Longitude": -122.337746 }, "geometry": { "type": "Point", "coordinates": [ -122.33775, 47.61483 ] } },
{ "type": "Feature", "properties": { "address": "W. Mercer St. & 3rd Ave. W.", "city": " Seattle", "state": " WA", "zip": null, "Latitude": 47.624596, "Longitude": -122.36063 }, "geometry": { "type": "Point", "coordinates": [ -122.36063, 47.6246 ] } },
{ "type": "Feature", "properties": { "address": "Warren and Mercer", "city": " Seattle", "state": " WA", "zip": null, "Latitude": 47.624573, "Longitude": -122.3541 }, "geometry": { "type": "Point", "coordinates": [ -122.3541, 47.62457 ] } },
{ "type": "Feature", "properties": { "address": "West Marginal Way S.W. & Chelan Ave. S.W.", "city": " Seattle", "state": " WA", "zip": null, "Latitude": 47.572447, "Longitude": -122.360304 }, "geometry": { "type": "Point", "coordinates": [ -122.3603, 47.57245 ] } },
{ "type": "Feature", "properties": { "address": "Westlake and Mercer", "city": " Seattle", "state": " WA", "zip": null, "Latitude": 47.613636, "Longitude": -122.337334 }, "geometry": { "type": "Point", "coordinates": [ -122.33733, 47.61364 ] } },
{ "type": "Feature", "properties": { "address": "Westlake and Republican", "city": " Seattle", "state": " WA", "zip": null, "Latitude": 47.613636, "Longitude": -122.337334 }, "geometry": { "type": "Point", "coordinates": [ -122.33733, 47.61364 ] } },
{ "type": "Feature", "properties": { "address": "Westlake Ave. N. and Highland Dr.", "city": " Seattle", "state": " WA", "zip": null, "Latitude": 47.629723, "Longitude": -122.342942 }, "geometry": { "type": "Point", "coordinates": [ -122.34294, 47.62972 ] } }
]
}
